[{"id":1,"name":"flexibility","address_line_1":"861 Murl Valley","address_line_2":null,"city":"West Eleonoremouth","state":"AL","zip":"44895-0293","longitude":"151.3473","latitude":"-77.3644","neighborhood":"Borders","website":"https://jules.com","description":"Nobis qui harum natus quis. Sed quia quia similique dolorem facere aut mollitia voluptas ut. Reiciendis unde facere et voluptatem voluptas architecto officia dignissimos autem. Deleniti saepe in magnam officia quidem quibusdam ratione omnis id. Eaque excepturi pariatur sed rerum quia deleniti cum. Voluptates neque sed qui sit itaque sunt sed.","hours":"Suite 184","phone_number":"665.019.3054","price_range":"$$$","review_average":null,"review_count":1254,"tags":["card","panel","system","microchip","port","alarm","system","sensor","driver","feed","pixel","system","system","driver","alarm","matrix","matrix","card","protocol","array","bandwidth","alarm","panel","pixel","application","alarm","monitor","alarm","capacitor","card","hard drive","bandwidth","monitor","card","system","capacitor"]},{"id":2,"name":"Fresh","address_line_1":"869 Lavern Burg","address_line_2":null,"city":"Matildaville","state":"VT","zip":"77288","longitude":"42.9573","latitude":"88.1556","neighborhood":"North Carolina","website":"http://michele.name","description":"Excepturi quia et fuga nostrum qui molestiae sint. Rerum commodi est qui. Voluptatem debitis et quibusdam ea et in beatae. Cum perferendis autem et consequatur.","hours":"Suite 997","phone_number":"1-849-688-0464","price_range":"$$$$$","review_average":null,"review_count":626,"tags":["panel","driver","system","bandwidth","sensor","firewall","matrix","firewall","feed","port","driver","port","application","sensor","alarm","pixel","microchip","sensor","protocol","program","application","driver","protocol","matrix","sensor","protocol","monitor","transmitter","array","card","hard drive","interface","application","driver","alarm","transmitter","feed","hard drive","port","interface","bus","monitor","port","transmitter","application","bus","program","monitor","port","monitor"]},{"id":3,"name":"lime","address_line_1":"8802 Stewart Ford","address_line_2":"Apt. 399","city":"Kennithbury","state":"MT","zip":"04349","longitude":"151.5732","latitude":"-23.1006","neighborhood":"impactful","website":"https://dena.info","description":"Minima quas libero corporis et eius dolorem ipsum aut. Totam dolorem dolores itaque. Ullam facere ut. Porro ut qui molestiae harum quis minima sit ipsum quam.","hours":"Apt. 018","phone_number":"(106) 340-9194","price_range":"$$$","review_average":null,"review_count":1168,"tags":["matrix","sensor","circuit","driver","port","pixel","firewall","transmitter","bus","firewall","panel","card","interface","transmitter","hard drive","array","pixel","feed","bus","feed","alarm","monitor","bus","bus","bandwidth","program"]},{"id":4,"name":"Pants","address_line_1":"25627 Francisca Hollow","address_line_2":null,"city":"Douglastown","state":"ND","zip":"92126-1720","longitude":"22.5396","latitude":"72.7425","neighborhood":"schemas","website":"https://eldridge.name","description":"Soluta aspernatur eius eum sint provident. Laborum vitae est ullam vel. Adipisci architecto commodi maxime omnis harum sunt.","hours":"Apt. 523","phone_number":"1-657-114-8461 x9947","price_range":"$$$","review_average":null,"review_count":1872,"tags":["protocol","system","application","system","application","hard drive","pixel","bus","bandwidth","capacitor","application","matrix","port","matrix","matrix"]},{"id":5,"name":"Handcrafted copy magnetic","address_line_1":"1009 O'Keefe Mall","address_line_2":null,"city":"Ernestinaside","state":"VA","zip":"67809","longitude":"66.3048","latitude":"-68.3142","neighborhood":"Investor Shoes CFA Franc BEAC","website":"https://taryn.name","description":"A et optio et. Harum mollitia doloremque blanditiis consequatur omnis sunt et reiciendis non. Veritatis quis doloribus. Error fuga quo ea enim nihil explicabo iste aut quia. Consequatur cupiditate ut.","hours":"Suite 037","phone_number":"581-350-7424","price_range":"$","review_average":null,"review_count":32,"tags":["card","array","driver","microchip","hard drive","protocol","protocol","card","bandwidth","application","microchip","circuit","feed","microchip","port","circuit","driver","system","bus","microchip","array","driver","circuit","firewall"]},{"id":6,"name":"Customer","address_line_1":"274 Elvie Trail","address_line_2":"Suite 712","city":"Kayleyland","state":"ND","zip":"39552-0001","longitude":"48.1136","latitude":"12.0684","neighborhood":"Automotive","website":"http://efrain.name","description":"Velit doloremque accusamus quia. Aut delectus mollitia vel. Accusantium cum sed officia dolores harum id. Qui ex et placeat non doloremque possimus. Quibusdam voluptas ipsum dolorum. Porro est eum quae ea accusantium.","hours":"Apt. 038","phone_number":"514-292-6433 x18171","price_range":"","review_average":null,"review_count":215,"tags":["bandwidth","circuit","interface","card","panel","card","panel","sensor","system","firewall","port","panel","capacitor","system","port","capacitor","microchip","matrix","circuit","port","monitor","card","port","bus","alarm","array","sensor","circuit","program","monitor","protocol","sensor","panel","feed","bandwidth","matrix","port","program","firewall","port","system","matrix","program"]},{"id":7,"name":"JBOD Steel","address_line_1":"314 Felix Key","address_line_2":null,"city":"Roobstad","state":"CA","zip":"24552-8443","longitude":"-30.0103","latitude":"15.7653","neighborhood":"Soft Steel","website":"https://cydney.name","description":"Ullam occaecati omnis. Eum rerum voluptatum nulla deleniti explicabo voluptatem laudantium. Dolorem ut sit itaque velit. Eum atque facere porro aut corporis. Quia fuga voluptatem. Quia libero est quia voluptatem debitis.","hours":"Suite 914","phone_number":"(059) 715-2314 x0944","price_range":"$$$","review_average":null,"review_count":287,"tags":["alarm","pixel","hard drive","sensor","matrix","hard drive","capacitor","sensor","transmitter","card","circuit","matrix"]},{"id":8,"name":"Internal Tools","address_line_1":"61205 Tamara Glen","address_line_2":null,"city":"Sauerstad","state":"AL","zip":"60294-0152","longitude":"-74.0795","latitude":"23.2569","neighborhood":"Reunion asymmetric","website":"https://nicolette.org","description":"Sunt rerum magnam. Sequi voluptas eaque temporibus. Tempore cumque rem omnis iure omnis similique. Ea doloremque assumenda saepe minima inventore. Quis dolor pariatur saepe quidem. Ut natus et officiis autem quo tenetur provident et.","hours":"Apt. 681","phone_number":"(171) 515-6525","price_range":"$","review_average":null,"review_count":591,"tags":["firewall","feed","protocol","array","system","program","driver","bus","microchip"]},{"id":9,"name":"indigo Sweden","address_line_1":"71440 Volkman Keys","address_line_2":"Apt. 452","city":"South Louisatown","state":"GA","zip":"56287-0558","longitude":"78.7949","latitude":"33.8923","neighborhood":"Accounts Kina","website":"https://trever.com","description":"Voluptas est sint est dolor reprehenderit. Ipsum non eius impedit similique dolorem quis dolor voluptatem. Ipsam ipsa quia saepe molestias maiores porro autem. Minus tempore nemo iure error porro ut enim fuga deleniti. Officia aut numquam rerum.","hours":"Apt. 099","phone_number":"(423) 297-6893 x6030","price_range":"$$$$","review_average":null,"review_count":496,"tags":["sensor","array","microchip","monitor","sensor","card","system","matrix","hard drive","matrix","interface","protocol","protocol","sensor","bus","card","port","pixel","transmitter","alarm","port","firewall","capacitor","driver","array","interface","array","panel","array","hard drive","bandwidth","firewall","sensor","driver","driver","feed","protocol","matrix","transmitter","alarm","feed","firewall"]},{"id":10,"name":"methodical deposit","address_line_1":"01871 Eve Grove","address_line_2":null,"city":"Rigobertoberg","state":"MN","zip":"49012-3446","longitude":"166.6968","latitude":"-39.4096","neighborhood":"hybrid Cuban Peso Peso Convertible","website":"http://hans.com","description":"Voluptatem fugit ut modi sed. Consequuntur rerum vel. Nisi voluptatem dolorem pariatur dolorem officia quo est.","hours":"Apt. 545","phone_number":"(060) 223-8132 x7821","price_range":"$$$$$","review_average":null,"review_count":616,"tags":["circuit","protocol","card","array","protocol","monitor","program","port","system","system","application","protocol","microchip","circuit","capacitor","card","matrix","circuit","pixel","application","port","feed","firewall","capacitor","array","bandwidth","card","capacitor","port"]},{"id":11,"name":"circuit withdrawal","address_line_1":"8902 Abernathy Village","address_line_2":null,"city":"Dasiaside","state":"MA","zip":"04717","longitude":"-149.2563","latitude":"38.5940","neighborhood":"harness Knoll","website":"http://lysanne.net","description":"Suscipit laboriosam consequatur sit quas dolor at fuga quis cupiditate. Dolor quidem consequuntur ab et vitae ratione laudantium aut. Sit rerum et quia in harum. Quibusdam ipsam laboriosam consequatur iste dolorem assumenda.","hours":"Suite 733","phone_number":"259-927-5463 x762","price_range":"$","review_average":null,"review_count":153,"tags":["program","pixel","transmitter","application","feed","port","pixel","matrix","program","interface","system","feed","feed","driver","pixel","sensor","interface","pixel","transmitter","alarm","interface","interface","interface","program","driver","bandwidth","circuit","firewall","sensor","card","sensor","feed","port","protocol","matrix","transmitter","application","program","port","alarm","port","bus","matrix"]},{"id":12,"name":"Granite","address_line_1":"094 Karson Cliffs","address_line_2":"Apt. 088","city":"Lake Albertha","state":"MN","zip":"60119-5105","longitude":"-173.1217","latitude":"-69.0250","neighborhood":"Applications","website":"http://matt.info","description":"Laboriosam corrupti modi unde quos aut quo. Aut est ut facere suscipit. Molestias consequuntur sed corrupti maxime quis consequuntur placeat. Vel error doloremque neque dolorem totam et illum ut.","hours":"Suite 926","phone_number":"546-360-3340","price_range":"$$$$$","review_average":null,"review_count":568,"tags":["pixel","hard drive","system","monitor","firewall","monitor","panel"]},{"id":13,"name":"Tuna Shoes 24/365","address_line_1":"19222 Maximo Harbors","address_line_2":null,"city":"North Kamille","state":"AZ","zip":"55853-4700","longitude":"-177.1040","latitude":"72.0094","neighborhood":"Steel homogeneous Louisiana","website":"https://marguerite.info","description":"Nam voluptas non omnis recusandae. Omnis omnis sit totam. Voluptas mollitia quia ea quia. Qui autem et velit.","hours":"Suite 680","phone_number":"354.514.7562 x899","price_range":"$","review_average":null,"review_count":839,"tags":["alarm","alarm","card","interface","port","protocol","panel","transmitter","matrix","alarm","pixel","transmitter","capacitor","circuit","interface","monitor","driver","pixel","capacitor","array","microchip","capacitor","firewall","transmitter","driver","application","pixel","protocol","transmitter","application","capacitor","matrix","matrix","program","driver","bus","protocol","driver","circuit","microchip","transmitter","program","transmitter","card"]},{"id":14,"name":"Namibia Bike","address_line_1":"968 Raynor Light","address_line_2":null,"city":"South Kaleyborough","state":"VA","zip":"45812-3288","longitude":"66.1650","latitude":"-22.8519","neighborhood":"Money Market Account Norwegian Krone","website":"https://marvin.name","description":"Accusamus impedit ex optio similique voluptas et aut aut qui. Omnis odit dolorem itaque omnis neque assumenda provident soluta. Sit sed eaque vel.","hours":"Suite 652","phone_number":"1-730-659-7387 x4902","price_range":"","review_average":null,"review_count":1014,"tags":["array","application","sensor","port","card","panel","protocol","matrix","bandwidth","circuit","protocol","driver","port","system","hard drive","monitor","circuit","feed","program","bandwidth","port","card","sensor","protocol","interface","interface","capacitor","microchip","interface","array","circuit","hard drive","firewall","feed","port","firewall","matrix","panel","sensor","driver","monitor","firewall","application","transmitter","driver"]},{"id":15,"name":"best-of-breed channels","address_line_1":"7630 Howe Junction","address_line_2":"Apt. 340","city":"New Brian","state":"GA","zip":"12380","longitude":"-158.4436","latitude":"-42.2578","neighborhood":"Wooden cross-platform","website":"http://mckenna.com","description":"Labore numquam id ut eos hic hic qui ut omnis. Et minus placeat dolores aliquid. Nulla id est odit occaecati dolorem a voluptatem in. Quidem fugit repellendus sint odit doloremque repudiandae quam velit.","hours":"Suite 735","phone_number":"283.889.5475 x449","price_range":"","review_average":null,"review_count":1801,"tags":["capacitor","transmitter","program","bus","microchip","program","firewall","firewall","feed","hard drive","application","sensor","capacitor","matrix","capacitor"]},{"id":16,"name":"withdrawal","address_line_1":"0921 Ara Club","address_line_2":null,"city":"Lake Paolo","state":"FL","zip":"71704-7223","longitude":"164.7077","latitude":"67.3867","neighborhood":"Cotton","website":"http://camille.net","description":"Ducimus voluptatum illum voluptatem pariatur voluptas sit assumenda sint. Similique rerum ex ut repudiandae magnam dolorum dolores doloremque autem. Architecto voluptatem architecto omnis. Deleniti libero repudiandae non dolorum velit.","hours":"Suite 049","phone_number":"(534) 836-7551 x597","price_range":"$$$$$","review_average":null,"review_count":763,"tags":["program","driver","bandwidth","feed","transmitter","hard drive","bus","driver","bandwidth","pixel","capacitor","microchip","card","port","bus","sensor","card","matrix","bandwidth","sensor","hard drive","capacitor","sensor","microchip","bandwidth","circuit","card","hard drive","system","firewall","system","panel","circuit","protocol","pixel","system","application","port","interface","sensor","application","card","firewall","circuit","sensor","driver","interface","array"]},{"id":17,"name":"Avon Pizza","address_line_1":"87147 Champlin Courts","address_line_2":null,"city":"O'Konchester","state":"OR","zip":"96503","longitude":"-24.3251","latitude":"51.3007","neighborhood":"Borders implement","website":"https://chandler.com","description":"Eos voluptate repellat nulla. Suscipit natus est inventore consequatur hic placeat ut. Molestiae autem omnis eum facere adipisci. Commodi voluptatem cum et veritatis. Et provident possimus quia sed. Officia hic nisi assumenda.","hours":"Apt. 105","phone_number":"555-148-8804","price_range":"$$$","review_average":null,"review_count":275,"tags":["monitor","sensor","driver","panel","bandwidth","program","matrix","bandwidth","protocol","driver","hard drive","alarm","feed","card","transmitter","firewall","array","program","panel","card","circuit","bandwidth","pixel","monitor","driver","microchip","system","hard drive","feed","application","pixel","microchip","microchip","card","alarm","hard drive","transmitter","hard drive","interface","microchip","sensor","pixel","alarm","system","feed","alarm","matrix"]},{"id":18,"name":"Dynamic cross-platform","address_line_1":"83564 Gerhold Dale","address_line_2":"Apt. 344","city":"Unaberg","state":"UT","zip":"90139","longitude":"-169.3465","latitude":"43.7847","neighborhood":"Rustic Soft Cheese Handcrafted Soft Table","website":"http://cydney.net","description":"At laudantium molestias saepe magni. Maxime autem corrupti minus alias placeat id dolorum natus dicta. Ad iste itaque ullam corporis aut sit.","hours":"Apt. 059","phone_number":"502.675.2324 x919","price_range":"$","review_average":null,"review_count":808,"tags":["hard drive","driver","bus","transmitter","card","panel","interface","capacitor","hard drive","interface","feed","circuit","program","program","monitor","hard drive","capacitor","panel","microchip","pixel","bus","driver","bus","bandwidth","hard drive","protocol","panel","protocol","microchip","microchip"]},{"id":19,"name":"teal Auto Loan Account","address_line_1":"05915 Kovacek Glen","address_line_2":null,"city":"Terrillmouth","state":"CT","zip":"35366-7948","longitude":"-177.0555","latitude":"-74.2971","neighborhood":"silver Avon","website":"http://rosendo.biz","description":"Eaque autem vel enim. Laborum iste voluptatem eos hic quidem debitis rem cupiditate. Est eius nisi eos ducimus perspiciatis aut ut itaque. A optio cum fugiat vel. Totam cupiditate omnis consequatur aut molestiae aut hic odio. Unde quam est consequatur veritatis quo optio.","hours":"Suite 646","phone_number":"1-691-723-1725","price_range":"$$$$","review_average":null,"review_count":1588,"tags":["interface","card","matrix","application","array","program","monitor","circuit","hard drive","driver","matrix","alarm","program","bandwidth","panel","capacitor","monitor","sensor","pixel","port","circuit","alarm","microchip","panel","circuit","capacitor","bandwidth","feed","interface","card","transmitter","card","circuit","interface","firewall","interface","matrix","bandwidth","card"]},{"id":20,"name":"SCSI Pakistan Rupee","address_line_1":"1255 Langworth Ways","address_line_2":null,"city":"Katelynnchester","state":"NE","zip":"25308","longitude":"110.2542","latitude":"77.1175","neighborhood":"synergize Pre-emptive","website":"http://julio.com","description":"Voluptatem ea aspernatur officia rem debitis laborum perspiciatis. Rerum est commodi deleniti exercitationem asperiores. Aliquam dolorem et neque qui animi quo maxime aut accusantium. Facilis asperiores assumenda necessitatibus non sint ut aut. Voluptatem optio rerum quo necessitatibus recusandae qui.","hours":"Apt. 596","phone_number":"428-905-7736","price_range":"","review_average":null,"review_count":1282,"tags":["program","feed","driver","circuit","transmitter","hard drive","bus","port","array","array","pixel","transmitter","system","driver","feed","interface","port","application","protocol","circuit","pixel","system","interface","feed","hard drive","capacitor","panel","interface","monitor","system","firewall","protocol","microchip","transmitter","panel","bus","pixel","interface","alarm","bus","protocol","panel","alarm","alarm","driver"]},{"id":21,"name":"Run","address_line_1":"09064 Langworth Shores","address_line_2":"Apt. 474","city":"Lake Shaniya","state":"TN","zip":"21818","longitude":"-103.7495","latitude":"43.6483","neighborhood":"Checking Account","website":"https://domenica.net","description":"Praesentium quia repellendus dolorum illo autem qui. Tenetur hic qui. Dolorum corrupti eos dolorum facilis.","hours":"Apt. 907","phone_number":"1-106-020-5996 x7898","price_range":"$$$","review_average":null,"review_count":1611,"tags":["feed","feed","hard drive","pixel","matrix","panel","panel","sensor","program","application","driver","port","circuit","port","circuit","feed","matrix","port","bus","pixel","bus","circuit","matrix","port","firewall","port","system","array","interface","port","array","capacitor","system","bus","feed","alarm","monitor","interface","monitor","application","pixel","pixel","capacitor","feed","microchip","protocol","matrix","card"]},{"id":22,"name":"connect","address_line_1":"6120 Christiansen Well","address_line_2":null,"city":"Trentmouth","state":"FL","zip":"52872","longitude":"166.0336","latitude":"-38.9819","neighborhood":"generate","website":"http://bryce.biz","description":"Repellendus aperiam consequatur dicta eum consequuntur perspiciatis doloremque sed. Qui nihil quia suscipit ut debitis. Quas consequatur dolore consequatur perspiciatis sit. Eligendi hic qui necessitatibus.","hours":"Apt. 929","phone_number":"414.337.0911","price_range":"$","review_average":null,"review_count":707,"tags":["card","port","array","driver","firewall","port","monitor","card","system","array","monitor","microchip","bandwidth","protocol","interface","application","bus","firewall","interface","application","hard drive","driver","capacitor","application","firewall","bus","interface","firewall","port","alarm","program","capacitor","feed","monitor","microchip","hard drive","hard drive","circuit","panel","system","application","bus","system"]},{"id":23,"name":"CFP Franc Fantastic","address_line_1":"384 Leuschke Manors","address_line_2":null,"city":"East Luigi","state":"ND","zip":"28288","longitude":"132.7041","latitude":"48.2572","neighborhood":"Car collaborative","website":"http://horacio.biz","description":"Adipisci vel omnis minima perferendis facilis. Nisi non id debitis voluptatibus eveniet repudiandae veritatis expedita magni. Sunt error rerum vitae accusamus. Perferendis voluptas illo ea. Natus amet enim molestiae consequatur cumque laborum quia.","hours":"Suite 249","phone_number":"1-286-042-3269","price_range":"$$$$","review_average":null,"review_count":1241,"tags":["application","feed","firewall","protocol","protocol","feed","bus","feed","bandwidth","sensor","matrix","bandwidth","pixel","alarm"]},{"id":24,"name":"quantify Cambridgeshire SAS","address_line_1":"0299 Nona Spring","address_line_2":"Suite 677","city":"New Dexter","state":"PA","zip":"52079-3939","longitude":"133.7171","latitude":"25.2251","neighborhood":"Borders Unbranded Agent","website":"http://laverna.org","description":"Esse quod sit provident eaque occaecati error pariatur ex. Doloribus ex nihil. Qui omnis cupiditate. Molestiae recusandae quaerat.","hours":"Suite 401","phone_number":"(169) 053-8781 x18469","price_range":"$$$$","review_average":null,"review_count":1447,"tags":["application","driver","driver","driver","bandwidth","interface","bandwidth","card","microchip","protocol","card","driver","program","bus","application","matrix","hard drive","firewall","interface","array","interface","array","sensor","panel","transmitter","system","system","feed","alarm","monitor","pixel","panel","sensor","transmitter","microchip","feed","feed","pixel","hard drive","monitor","sensor","port","driver","pixel","card","port","system"]},{"id":25,"name":"payment quantifying","address_line_1":"97265 Bernier Circles","address_line_2":null,"city":"Sigridtown","state":"TX","zip":"82605","longitude":"139.0530","latitude":"-10.7248","neighborhood":"granular e-enable","website":"https://jerad.info","description":"In aut voluptatum sed aperiam. Exercitationem error maxime dolorem necessitatibus rerum nemo temporibus. Non quidem aut alias dolores earum aliquam. Omnis ut eveniet earum qui. Et ratione praesentium et in.","hours":"Suite 358","phone_number":"512-235-6007 x607","price_range":"$","review_average":null,"review_count":1710,"tags":["monitor","card","feed","bandwidth","protocol","microchip","panel","program","alarm","circuit"]},{"id":26,"name":"Massachusetts Switchable","address_line_1":"668 Koepp Ridges","address_line_2":null,"city":"Lake Justiceberg","state":"KS","zip":"69947-4709","longitude":"-116.6818","latitude":"78.7507","neighborhood":"Synergistic Baby","website":"http://rhianna.info","description":"Reiciendis quia qui. Vel iste nesciunt sint ipsum harum. Non voluptatum quia expedita officiis.","hours":"Apt. 682","phone_number":"252-565-8377","price_range":"$$$$","review_average":null,"review_count":1523,"tags":["program","microchip"]},{"id":27,"name":"EXE Metal","address_line_1":"51676 Ritchie Hollow","address_line_2":"Suite 414","city":"Aliaview","state":"WV","zip":"69692","longitude":"-106.5957","latitude":"-46.2798","neighborhood":"XSS azure","website":"http://makayla.biz","description":"Sint totam sunt in aspernatur. Laborum aliquam quo sint consectetur consequatur repudiandae ut. Sit sint a error quas repudiandae corporis ea labore. Officia numquam sunt omnis consequatur qui eligendi adipisci nesciunt dignissimos.","hours":"Suite 976","phone_number":"025.599.6819 x16659","price_range":"$","review_average":null,"review_count":523,"tags":["capacitor","interface","array","firewall","interface","firewall","firewall","alarm","card","array","alarm","firewall","port","capacitor","capacitor","port","sensor","transmitter","capacitor","capacitor","application","capacitor","firewall","circuit","panel","transmitter","alarm","driver","array","alarm","microchip","capacitor","port","protocol","feed","microchip","monitor","circuit","interface","array","hard drive","hard drive"]},{"id":28,"name":"Sports brand","address_line_1":"8426 Rafael Forges","address_line_2":null,"city":"Sebastianborough","state":"VT","zip":"69977-6565","longitude":"148.1094","latitude":"-24.9845","neighborhood":"Money Market Account Producer","website":"http://clay.info","description":"Rerum enim consequuntur asperiores vitae nesciunt consequatur quos molestiae molestias. Et aliquam deserunt et vel. Reiciendis dolores velit sint tenetur eos ex. Laboriosam et quae. Quis nemo asperiores inventore.","hours":"Apt. 224","phone_number":"1-956-587-6312","price_range":"","review_average":null,"review_count":1695,"tags":["hard drive","application","hard drive","bandwidth","application","system","port","port","monitor","transmitter","driver","panel","microchip","application","bus","circuit","capacitor","card","feed","driver","firewall","protocol","bus","interface","driver","circuit","panel","card","driver","alarm","bandwidth","array","bus","program","program","program","application","microchip","hard drive","feed","bandwidth","program","matrix","system","panel","system"]},{"id":29,"name":"Health","address_line_1":"705 Enola Mills","address_line_2":null,"city":"East Dejahport","state":"CT","zip":"70830-5729","longitude":"61.0900","latitude":"78.3653","neighborhood":"Berkshire","website":"http://mohammad.net","description":"Voluptatem animi cupiditate voluptatem ut. Tempora odio veritatis aliquid. Minus officiis assumenda provident et. Autem odio sed. Et odit voluptate. Vitae est in fugit nobis qui debitis repellat.","hours":"Apt. 787","phone_number":"1-528-118-4595","price_range":"$$$$$","review_average":null,"review_count":258,"tags":["pixel"]},{"id":30,"name":"Ohio parse","address_line_1":"133 Greenholt Grove","address_line_2":"Apt. 982","city":"Lake Brayan","state":"NY","zip":"10341-9696","longitude":"-34.4864","latitude":"61.1405","neighborhood":"Assistant navigating","website":"http://osbaldo.com","description":"Velit voluptates eius voluptatem possimus aut consequuntur voluptatum porro qui. Libero accusantium rerum commodi enim esse nemo est pariatur voluptatem. Explicabo quis voluptates. Fugit ut facilis doloremque eligendi possimus similique.","hours":"Suite 260","phone_number":"531.938.3771","price_range":"","review_average":null,"review_count":252,"tags":["bandwidth","pixel","matrix","bus","hard drive","sensor","program","card","monitor","feed","alarm","program","capacitor","panel","array","protocol","driver","program","circuit","bandwidth","interface","matrix"]},{"id":31,"name":"Chief time-frame","address_line_1":"90380 Jerel Shoals","address_line_2":null,"city":"South Kristopher","state":"IN","zip":"89540-1620","longitude":"52.6997","latitude":"-16.5756","neighborhood":"artificial intelligence Dynamic","website":"https://kory.com","description":"Qui a vel sunt omnis quis ullam dolore quia quia. Culpa adipisci natus et magni qui et in. Harum dolor quasi quia quia alias amet perferendis eum.","hours":"Apt. 450","phone_number":"276-684-0147 x430","price_range":"$$","review_average":null,"review_count":1850,"tags":["capacitor","sensor","feed","alarm","program","alarm","array","panel","panel","monitor","protocol","program","feed","capacitor","capacitor","circuit","alarm","protocol","monitor","driver","protocol","sensor","array","circuit","application","circuit","port"]},{"id":32,"name":"navigate","address_line_1":"900 Chloe Canyon","address_line_2":null,"city":"Port Andreanne","state":"ME","zip":"99611-7021","longitude":"-147.6723","latitude":"-3.6440","neighborhood":"Inlet","website":"http://pascale.net","description":"Repudiandae adipisci minus aperiam rerum unde cumque iste ipsum suscipit. Debitis itaque amet. Fugiat omnis voluptatem vitae. Quae fuga occaecati quisquam reiciendis aut. Laborum rerum dignissimos ratione voluptatibus nostrum consequuntur quidem quae rerum.","hours":"Suite 590","phone_number":"955.222.2682","price_range":"$$","review_average":null,"review_count":1796,"tags":["matrix","sensor","pixel","capacitor","capacitor","driver","array","alarm","pixel","feed","bandwidth","hard drive","program","card","circuit","circuit","sensor","circuit","matrix","pixel","driver","port","application","firewall","transmitter","monitor","pixel","interface","program","application","capacitor","protocol","driver","transmitter","feed","system","driver","circuit","panel","bandwidth","application","microchip","interface","bus"]},{"id":33,"name":"Manager Avon","address_line_1":"264 Darrick Prairie","address_line_2":"Apt. 530","city":"East Holdenport","state":"WY","zip":"69483-8853","longitude":"32.2618","latitude":"53.7489","neighborhood":"Corporate Berkshire","website":"https://jailyn.com","description":"Laudantium itaque non vel ut perferendis. Sit aut fuga quia distinctio libero aut voluptates ut eum. Quos eligendi laboriosam. Animi facere delectus quas non velit sed illum. Atque optio voluptatem et nihil et et reiciendis. Illo earum doloremque.","hours":"Suite 068","phone_number":"763.549.5108 x939","price_range":"","review_average":null,"review_count":4,"tags":["bandwidth","circuit","interface","panel","transmitter","firewall","protocol","program","port","firewall","bandwidth","array","microchip","application","system","system","pixel","protocol","program","bus","firewall","application","firewall","port","feed","panel","bus","transmitter","port","alarm","system","microchip","transmitter","feed","protocol","circuit","pixel","feed","card","application","hard drive"]},{"id":34,"name":"withdrawal alarm","address_line_1":"321 Toney Hills","address_line_2":null,"city":"Kameronfort","state":"NE","zip":"50179","longitude":"-75.7811","latitude":"-89.2533","neighborhood":"multi-tasking Proactive","website":"https://bennett.info","description":"Magnam exercitationem perspiciatis quis porro in repellendus aut. Ipsum rerum sed doloremque nihil tempora. Perferendis sit et facere numquam fugit itaque. Aut error similique at dolore aperiam voluptas. Enim qui mollitia quos rem cumque. Modi animi totam occaecati dolorem quisquam.","hours":"Apt. 523","phone_number":"(155) 544-4253 x76901","price_range":"$","review_average":null,"review_count":1413,"tags":["card","microchip","driver","monitor","microchip","feed","panel","pixel","interface","protocol","monitor","driver","monitor","hard drive","sensor","interface","system","card","interface"]},{"id":35,"name":"National backing up","address_line_1":"2382 Evan Dam","address_line_2":null,"city":"North Lori","state":"MA","zip":"23724-3123","longitude":"148.8684","latitude":"58.3092","neighborhood":"solid state Auto Loan Account","website":"https://elisa.name","description":"Vero deleniti quo numquam quis et soluta ut. Saepe laborum quod nisi minima eius et. Ut odio nostrum quaerat iste. Et iusto alias optio asperiores.","hours":"Apt. 119","phone_number":"560-063-2426 x9907","price_range":"$$$$","review_average":null,"review_count":1793,"tags":["interface","port","matrix","matrix","protocol","transmitter","circuit","microchip","protocol","sensor","card","port","program","pixel","bus","capacitor","pixel","interface","pixel","matrix","sensor","sensor","feed","monitor","monitor","matrix","interface","transmitter","system","alarm","capacitor","bus","matrix","alarm","interface","application","microchip","interface","circuit","matrix","feed","firewall","alarm","port","alarm","pixel","system","hard drive","bandwidth","capacitor"]},{"id":36,"name":"exuding","address_line_1":"69250 Cummings Forks","address_line_2":"Apt. 659","city":"Modestoville","state":"ID","zip":"85063","longitude":"-178.2706","latitude":"69.3708","neighborhood":"orange","website":"https://christy.org","description":"Sunt quasi id deserunt quaerat et dolor pariatur. Vero doloribus repellendus exercitationem nisi nobis. In similique corporis.","hours":"Apt. 809","phone_number":"(582) 456-8893 x175","price_range":"$$$","review_average":null,"review_count":1289,"tags":["transmitter","monitor","array","application","capacitor","system","circuit","system","array","program","pixel","microchip","application","hard drive","pixel","hard drive","card","alarm","driver","interface","sensor","system","monitor","protocol","firewall","interface","program","firewall","alarm","bandwidth","transmitter","port","feed","array","driver","bus","card","hard drive","monitor","bus","program"]},{"id":37,"name":"online","address_line_1":"404 Skiles Course","address_line_2":null,"city":"Willmouth","state":"WI","zip":"90923","longitude":"140.2596","latitude":"12.6866","neighborhood":"programming","website":"https://keeley.info","description":"Maxime facilis amet maiores molestiae minima magni ut eum. Consequatur omnis sed possimus sit. Modi et omnis reiciendis eos est. Sunt ut voluptas quam aliquid placeat quidem consequatur.","hours":"Apt. 353","phone_number":"1-489-929-2483 x035","price_range":"$","review_average":null,"review_count":1759,"tags":["microchip","program","driver","capacitor","port","program","bus","hard drive","port","feed","system","sensor","sensor","system","application","hard drive","driver","hard drive","interface","firewall","microchip","sensor","interface","panel","panel","pixel","feed","card","hard drive","array","bandwidth","monitor","circuit","driver","microchip","driver","array","pixel","bus"]},{"id":38,"name":"Slovenia mindshare Bacon","address_line_1":"9421 Raul Spur","address_line_2":null,"city":"Vernershire","state":"MN","zip":"78438","longitude":"60.7548","latitude":"16.6879","neighborhood":"programming Ergonomic Plastic Shirt Granite","website":"https://yasmine.net","description":"In omnis assumenda est expedita quia eos facere labore dolores. Odio omnis reprehenderit rem autem minus. Cupiditate itaque consequatur quod est optio odit et doloribus.","hours":"Suite 064","phone_number":"1-654-815-0974 x8263","price_range":"","review_average":null,"review_count":482,"tags":["interface","bandwidth","capacitor","protocol","protocol","pixel","feed","alarm","feed","firewall","transmitter","monitor","program","microchip","interface","transmitter","firewall","sensor","bandwidth","alarm","system","application","matrix","alarm","alarm","system","matrix","matrix","firewall","microchip","bandwidth","driver","driver","panel","driver","capacitor","sensor","card","port","protocol","microchip"]},{"id":39,"name":"reboot Norwegian Krone","address_line_1":"31973 Gislason Crest","address_line_2":"Suite 396","city":"Port Tatestad","state":"SC","zip":"90896","longitude":"32.7044","latitude":"-5.5250","neighborhood":"Forward capacitor","website":"https://earline.info","description":"Molestiae in at nobis quod quidem non minima qui nemo. Porro veniam et est dicta aspernatur omnis voluptatum eligendi. Sunt in veniam assumenda fuga voluptate modi explicabo. Accusamus eum quo.","hours":"Suite 211","phone_number":"176-984-5488","price_range":"$$$$","review_average":null,"review_count":762,"tags":["interface","interface","microchip","card","program","pixel","matrix","protocol","protocol","port","card","firewall","card","system","pixel","matrix","transmitter","application","card","monitor","bandwidth","port","capacitor","microchip","alarm","bus","port","pixel","panel","feed"]},{"id":40,"name":"backing up Chief","address_line_1":"227 Gutkowski Branch","address_line_2":null,"city":"Lake Huldaview","state":"DE","zip":"55076-6518","longitude":"-86.4194","latitude":"30.5035","neighborhood":"olive Soap","website":"https://brody.biz","description":"Sunt consequatur rerum ut repellendus aut et sunt. Dignissimos adipisci in id repellendus porro itaque hic. Magnam architecto et soluta officiis vel aut. Autem non quo voluptatem natus aliquam repellat. Sit animi et soluta sit reiciendis sit recusandae delectus. Non sint eos velit error reprehenderit.","hours":"Apt. 696","phone_number":"295.969.9260 x7479","price_range":"","review_average":null,"review_count":1661,"tags":["capacitor","monitor","feed","application","bus","port","monitor","port","circuit","system","bandwidth","microchip","hard drive","card","system","driver","driver","interface","transmitter","driver","panel","alarm","port","bus","circuit","system","circuit","panel","driver","panel","bus","transmitter","feed","port","port","transmitter","program","microchip","panel","program","monitor"]},{"id":41,"name":"supply-chains","address_line_1":"54194 Hackett Ridge","address_line_2":null,"city":"Farrellfurt","state":"UT","zip":"33563-3268","longitude":"18.8040","latitude":"-0.2755","neighborhood":"ubiquitous","website":"https://keira.com","description":"Consequatur dolor totam odio. Nam aut enim non accusamus sint. Odio odit voluptas nihil commodi nemo rem vel.","hours":"Apt. 854","phone_number":"484-777-9186","price_range":"$$$$","review_average":null,"review_count":290,"tags":["matrix","bandwidth","interface","panel","bus","program","feed","bus","matrix","card","hard drive","transmitter","firewall","interface","bus","hard drive","array","program","protocol","application","firewall","transmitter","capacitor","capacitor","bus","matrix","pixel","hard drive","sensor","bus","array","protocol","protocol","hard drive","bandwidth","feed","program","array","feed","capacitor","matrix","array","system","card","system","protocol","hard drive","pixel","alarm"]},{"id":42,"name":"system COM","address_line_1":"30365 Bradford Estates","address_line_2":"Suite 274","city":"North Dereck","state":"PA","zip":"97707-0863","longitude":"32.8690","latitude":"-39.6067","neighborhood":"Tasty Frozen Ball Developer","website":"https://piper.com","description":"Iure ut quia voluptas quisquam commodi dolorum in commodi excepturi. Repellat distinctio tempora dolor quibusdam est animi saepe. Dignissimos sunt officiis reiciendis sit.","hours":"Apt. 009","phone_number":"(872) 440-5075 x3990","price_range":"$$$$$","review_average":null,"review_count":481,"tags":["firewall","feed","sensor","program","interface","transmitter","application","bus","transmitter","monitor","transmitter","circuit","panel"]},{"id":43,"name":"Towels program","address_line_1":"49180 Rodriguez Station","address_line_2":null,"city":"Tomashaven","state":"NY","zip":"39096","longitude":"36.0618","latitude":"-32.7967","neighborhood":"systems deposit","website":"http://kurtis.info","description":"Quis deserunt autem deleniti. Odio mollitia aut aperiam in ipsum omnis sed. Necessitatibus non occaecati non aut voluptatibus omnis neque. Hic deleniti explicabo quidem qui modi in in. Similique eos et.","hours":"Suite 925","phone_number":"630-298-8978","price_range":"$$$$$","review_average":null,"review_count":1644,"tags":["circuit","system","port","protocol","capacitor","firewall","pixel","system","interface","pixel","port","monitor","monitor","capacitor","hard drive","driver","firewall","capacitor","card","feed","transmitter","system","bus","panel","circuit","matrix","sensor","array","driver","card","application","circuit","transmitter","application","panel","sensor"]},{"id":44,"name":"Cambridgeshire value-added Gorgeous","address_line_1":"13217 Hans Parkway","address_line_2":null,"city":"Lake Ricardo","state":"AZ","zip":"14360-5326","longitude":"78.7430","latitude":"50.0685","neighborhood":"Salad open-source Manager","website":"https://gabe.info","description":"Rem qui sit est quia nam in. Amet id velit. Quam ex consequuntur ex vitae perferendis quos cupiditate iste. Optio aut et et sed. In soluta ea velit et cum vero ex voluptas quis.","hours":"Suite 346","phone_number":"(257) 991-1432","price_range":"","review_average":null,"review_count":723,"tags":["matrix","matrix","alarm","circuit","port","sensor","capacitor","sensor","driver","array","port","microchip","bus","capacitor","program","application","driver","driver","feed","interface","system","bus","driver","firewall","driver","panel","hard drive","firewall","transmitter","alarm","capacitor","matrix","alarm","program","port"]},{"id":45,"name":"Distributed 24/7 Money Market Account","address_line_1":"67327 Hermiston Meadow","address_line_2":"Suite 081","city":"East Demetriustown","state":"DE","zip":"13645","longitude":"-160.2660","latitude":"50.5467","neighborhood":"Cambridgeshire withdrawal vertical","website":"https://athena.biz","description":"Delectus sint est distinctio dicta nesciunt sunt. Et occaecati id sit voluptatem iste inventore qui reprehenderit. Molestias aliquid adipisci. Nesciunt neque rerum aut.","hours":"Suite 331","phone_number":"335-727-0741 x90025","price_range":"$$$","review_average":null,"review_count":1524,"tags":["firewall","matrix","circuit","monitor"]},{"id":46,"name":"Oklahoma Small Soft Fish","address_line_1":"79853 Walker Walks","address_line_2":null,"city":"West Jamarcusfort","state":"ND","zip":"48036-4610","longitude":"23.6013","latitude":"76.2072","neighborhood":"navigating Berkshire","website":"https://marguerite.biz","description":"Aliquid autem vel reiciendis. Veniam modi suscipit id sed veritatis harum dolorem architecto aliquam. Ut ut sed et sed officia aspernatur. Eum suscipit inventore quia aperiam sit aperiam laborum. Eius et temporibus eveniet.","hours":"Apt. 048","phone_number":"436.592.3301 x1176","price_range":"$$$","review_average":null,"review_count":1680,"tags":["monitor","panel","port","application","system","bandwidth","transmitter","bandwidth"]},{"id":47,"name":"Avon Books user-centric","address_line_1":"36288 Vivienne Pike","address_line_2":null,"city":"Violafurt","state":"KY","zip":"42076","longitude":"119.3040","latitude":"-60.5187","neighborhood":"Tactics Frozen Agent","website":"https://reid.com","description":"Expedita provident in est ab voluptatem. Voluptatem amet in tempora fugit architecto reprehenderit. Qui eum quo eligendi. Natus nisi ipsam et. Dolores eveniet velit id voluptates.","hours":"Suite 455","phone_number":"1-579-486-0399 x10263","price_range":"","review_average":null,"review_count":1826,"tags":["panel","driver","pixel","firewall","bandwidth","bandwidth","alarm","protocol","protocol","microchip","transmitter","monitor","microchip","firewall","alarm","bus","firewall","circuit","port"]},{"id":48,"name":"Fresh Savings Account International","address_line_1":"3400 Rose Passage","address_line_2":"Apt. 020","city":"Connellyport","state":"NE","zip":"55079","longitude":"-66.3830","latitude":"36.0925","neighborhood":"Personal Loan Account synthesize Accountability","website":"http://ceasar.info","description":"Aut est est rerum quibusdam rerum aut ad mollitia voluptatem. Nulla amet numquam ipsum sed iusto dolore. Culpa tempore odit. Suscipit et beatae sed quae rerum. Labore veritatis exercitationem vitae error earum labore vero. Earum omnis labore.","hours":"Suite 044","phone_number":"022-462-0260 x31121","price_range":"$$$$","review_average":null,"review_count":1129,"tags":["microchip","port","matrix","application","transmitter","bus","bandwidth","card","port","program","application","pixel","monitor","circuit","capacitor","transmitter","bandwidth","card","feed","system","application","monitor","transmitter","capacitor","transmitter","driver","array"]},{"id":49,"name":"customer loyalty Electronics","address_line_1":"032 Aileen Mountain","address_line_2":null,"city":"North Betty","state":"WA","zip":"35417","longitude":"56.3110","latitude":"4.3075","neighborhood":"Netherlands Antillian Guilder Lead","website":"https://jaquan.com","description":"Accusamus eum facere corrupti est modi enim. Dolorem rerum aliquam. Quia omnis quo aliquid suscipit. Earum libero consequuntur vitae molestiae vel. Velit ut eos ipsum voluptas autem dolore vitae exercitationem voluptas.","hours":"Suite 321","phone_number":"(020) 966-6754 x34865","price_range":"$$$$$","review_average":null,"review_count":1028,"tags":["transmitter","matrix","feed","application","port","microchip","matrix","panel","circuit","transmitter","capacitor","bus","sensor","port","transmitter","circuit","capacitor"]},{"id":50,"name":"Savings Account Buckinghamshire Avon","address_line_1":"1036 Eliza Mountains","address_line_2":null,"city":"Zeldaburgh","state":"ME","zip":"72493-8306","longitude":"128.3801","latitude":"-3.1237","neighborhood":"indexing National Designer","website":"http://estefania.org","description":"Tenetur voluptas dolorum. Facere quibusdam quisquam qui earum veritatis ad quia velit qui. Et at aut dolorum amet.","hours":"Suite 948","phone_number":"721-672-9501 x65381","price_range":"","review_average":null,"review_count":1371,"tags":["alarm","sensor","bus","bus","card","capacitor","card","capacitor","system","pixel","program","system","capacitor","application","array","hard drive","system","hard drive","system","circuit","panel","circuit","pixel","system","bandwidth","port","card","panel","microchip","port","bus","capacitor","feed","protocol","firewall","circuit","program","alarm","port","firewall"]},{"id":51,"name":"Kroon deposit","address_line_1":"44016 Powlowski Harbors","address_line_2":"Suite 306","city":"West Rafael","state":"NJ","zip":"85763-8832","longitude":"141.3084","latitude":"23.3447","neighborhood":"Steel primary","website":"http://jermey.com","description":"Pariatur consequatur quis consequatur eveniet dolorum quae culpa. Dolorem ipsa et nisi deserunt possimus impedit rerum non. Adipisci aut modi sequi vel vitae ea voluptas aliquam. Maiores dolores quos reprehenderit occaecati recusandae quia ex.","hours":"Apt. 612","phone_number":"277.221.3928","price_range":"$","review_average":null,"review_count":487,"tags":["bandwidth","transmitter","program","firewall","program","pixel","feed","microchip","system","monitor","panel","pixel","monitor"]},{"id":52,"name":"Consultant United States Minor Outlying Islands","address_line_1":"02996 Mavis Inlet","address_line_2":null,"city":"Port Lucie","state":"VA","zip":"34860","longitude":"-103.9466","latitude":"-50.5911","neighborhood":"Decentralized Small","website":"http://dustin.info","description":"Earum minus saepe et magni aut. Et asperiores possimus. Harum ipsum asperiores quis sit et in dolores amet.","hours":"Suite 876","phone_number":"(531) 887-0732 x14182","price_range":"","review_average":null,"review_count":1691,"tags":["hard drive","hard drive","program","monitor","port","monitor","panel","interface","array","bandwidth","port","capacitor","pixel","interface","system"]},{"id":53,"name":"next generation Borders lavender","address_line_1":"662 Stroman Drive","address_line_2":null,"city":"Langoshchester","state":"AZ","zip":"42631","longitude":"48.7298","latitude":"67.7843","neighborhood":"SQL mission-critical Cheese","website":"http://michale.net","description":"Et explicabo in eum. Voluptatem ipsum cumque illum nam aut tempore tempora. In aut doloremque iure ut.","hours":"Apt. 006","phone_number":"228-897-8043","price_range":"$$$","review_average":null,"review_count":711,"tags":["feed","sensor","card","application","system","system","matrix","port","card","interface","feed","monitor","interface","feed","panel"]},{"id":54,"name":"bypassing integrated Cotton","address_line_1":"35830 Watson Mountains","address_line_2":"Apt. 109","city":"Sengermouth","state":"DE","zip":"16973","longitude":"12.6623","latitude":"50.7251","neighborhood":"Personal Loan Account Rustic Home Loan Account","website":"http://destin.biz","description":"Recusandae et deserunt et et quasi aspernatur. Unde non sit facilis delectus blanditiis fuga voluptas. Magni sit dolores minus sed eveniet.","hours":"Apt. 335","phone_number":"(084) 228-2277 x69018","price_range":"$$$$$","review_average":null,"review_count":1937,"tags":["array","card","bus","system","circuit","microchip","bus","interface","sensor","application","alarm","pixel","transmitter","bus","capacitor","bus","hard drive","microchip","protocol","transmitter","program","microchip"]},{"id":55,"name":"Internal Incredible SDD","address_line_1":"4410 Considine Point","address_line_2":null,"city":"Alvenabury","state":"UT","zip":"46321-8277","longitude":"-76.1586","latitude":"18.9513","neighborhood":"panel Trinidad and Tobago Metal","website":"https://mekhi.info","description":"Ea veritatis assumenda est aut. Omnis velit ratione voluptatem consequatur sed. Dolores ipsum recusandae vel molestias laboriosam pariatur et impedit. Omnis qui eveniet dolor iusto neque dolorum aut. Sunt provident voluptas pariatur saepe possimus aut officiis.","hours":"Suite 688","phone_number":"850-976-2248","price_range":"$$$","review_average":null,"review_count":1298,"tags":["firewall","firewall","program","hard drive","circuit","circuit","system","bandwidth","transmitter","hard drive","sensor","feed","matrix","microchip","protocol","panel","circuit","port","pixel","sensor","monitor","bandwidth","alarm","sensor","monitor","pixel","capacitor","monitor","system","array"]},{"id":56,"name":"New Hampshire Computers driver","address_line_1":"7714 Brionna Extensions","address_line_2":null,"city":"Lake Roseburgh","state":"RI","zip":"02020","longitude":"132.1613","latitude":"-50.7424","neighborhood":"productize Awesome Borders","website":"https://mohammed.name","description":"Reiciendis veritatis inventore quia aut iure iure. Sequi natus ut dolorem commodi totam aut dolores et. Quisquam explicabo asperiores est mollitia perspiciatis pariatur repellendus et. Repellat temporibus quam nemo autem debitis ut asperiores.","hours":"Apt. 677","phone_number":"(444) 185-9689","price_range":"","review_average":null,"review_count":1373,"tags":["capacitor","bandwidth","circuit","pixel","bandwidth","transmitter","program","protocol","circuit","transmitter","program","interface","transmitter","feed","interface","firewall","bus","array","system","monitor","protocol","circuit","array","monitor"]},{"id":57,"name":"Corners","address_line_1":"32291 Kuphal Circle","address_line_2":"Suite 144","city":"Port Antoniofort","state":"NE","zip":"12465-9368","longitude":"-132.0643","latitude":"-15.3805","neighborhood":"Vision-oriented","website":"https://cortney.info","description":"Nesciunt quos pariatur quas est itaque. Similique qui similique architecto dolore rerum maiores repellat quae earum. Iusto cumque omnis animi.","hours":"Apt. 053","phone_number":"1-621-948-1263 x476","price_range":"$$$$","review_average":null,"review_count":1474,"tags":["program","capacitor","bandwidth","feed","feed","panel","transmitter","hard drive","monitor","pixel","firewall","card","interface","application","interface","monitor","monitor","matrix","transmitter","bandwidth","card","array","transmitter","alarm","program","capacitor","circuit","protocol","driver","protocol","array","transmitter","firewall","protocol","firewall","feed","firewall","microchip","firewall","hard drive","bandwidth","card","application","monitor"]},{"id":58,"name":"wireless info-mediaries","address_line_1":"460 Greenfelder Lights","address_line_2":null,"city":"Port Friedabury","state":"HI","zip":"89019","longitude":"118.6857","latitude":"59.3887","neighborhood":"deposit firewall","website":"http://alda.com","description":"Impedit vitae non cumque consequatur autem et non. At assumenda reiciendis. Quasi molestias accusamus et minima quia odio dolorum sapiente. Sed debitis sunt quia in soluta quae ex aliquam vero.","hours":"Suite 048","phone_number":"629.655.9109 x853","price_range":"$","review_average":null,"review_count":921,"tags":["alarm","feed","card","card","firewall"]},{"id":59,"name":"SQL Granite compress","address_line_1":"18286 Senger Spur","address_line_2":null,"city":"Shayleeberg","state":"MS","zip":"15736-5816","longitude":"-136.7877","latitude":"50.9987","neighborhood":"Street EXE Mexico","website":"https://aubrey.name","description":"Dolor saepe ut. Qui voluptatem vel esse ea eos amet delectus. Accusamus optio cupiditate debitis voluptatem possimus qui explicabo officia commodi.","hours":"Apt. 191","phone_number":"309-185-5703","price_range":"$$","review_average":null,"review_count":1458,"tags":["port","capacitor","firewall","feed","bandwidth","capacitor","capacitor","capacitor","interface","system","bandwidth","application","circuit","port","capacitor","capacitor","port","pixel","card","program","circuit","firewall","matrix","sensor","bandwidth"]},{"id":60,"name":"Credit Card Account","address_line_1":"0161 Boyle Heights","address_line_2":"Suite 436","city":"New Payton","state":"MA","zip":"20202","longitude":"163.8981","latitude":"-1.8035","neighborhood":"Buckinghamshire","website":"http://pierre.name","description":"Architecto eos placeat a ipsam odit. Iure odio magni dignissimos facere iste. Magnam et et totam cum. Corrupti officiis cum voluptas sit sit aut qui.","hours":"Apt. 505","phone_number":"1-454-619-2996 x782","price_range":"","review_average":null,"review_count":1444,"tags":["feed","bandwidth","panel","feed","protocol","bandwidth","driver","capacitor","application","bus","capacitor","array","port","capacitor","feed","capacitor","transmitter","hard drive","array","bandwidth","pixel","panel","alarm","bandwidth","alarm","system","bandwidth","hard drive","transmitter","capacitor","application","system","application","capacitor","bandwidth","port","application","sensor"]},{"id":61,"name":"Spur","address_line_1":"36860 Durgan Groves","address_line_2":null,"city":"North Noble","state":"UT","zip":"63246","longitude":"55.5246","latitude":"-32.8022","neighborhood":"bus","website":"https://river.net","description":"Qui doloremque eos non ea quis distinctio qui quia. Praesentium error est quo. Quia dolore eos ut qui aperiam ratione at minus neque.","hours":"Apt. 904","phone_number":"1-594-235-6367 x3881","price_range":"","review_average":null,"review_count":453,"tags":["capacitor","protocol","bandwidth","hard drive","program","circuit","firewall","panel","alarm","program","matrix","circuit","card","application","pixel","port","bus","protocol","port","monitor","array"]},{"id":62,"name":"protocol withdrawal Bacon","address_line_1":"721 Hauck Land","address_line_2":null,"city":"Kozeyville","state":"TX","zip":"47673","longitude":"41.6408","latitude":"79.6049","neighborhood":"empower array Borders","website":"http://willie.com","description":"Est numquam dolorem sequi beatae provident et non. Ipsa ut et tenetur. Rerum reiciendis porro perferendis aspernatur ad debitis vel nihil. Voluptatem voluptas sunt expedita rerum voluptatum inventore. Itaque vero cumque aliquam non consectetur maiores odit. Provident sint ut natus.","hours":"Apt. 394","phone_number":"(811) 909-7852","price_range":"$$","review_average":null,"review_count":226,"tags":["hard drive","hard drive","monitor","microchip","sensor","microchip","alarm","matrix","driver","bus","sensor","firewall","circuit","driver","firewall","port","driver","firewall","circuit","card","panel","microchip","pixel","program","protocol","bus","capacitor","driver","transmitter","monitor","matrix"]},{"id":63,"name":"Concrete Chicken","address_line_1":"34397 Jackson Fields","address_line_2":"Suite 345","city":"Timothymouth","state":"MT","zip":"84589-7670","longitude":"-135.8823","latitude":"-13.0599","neighborhood":"cyan front-end","website":"https://efrain.org","description":"Dolores molestiae repudiandae quisquam qui facere ut quia. Impedit corporis consequatur nihil atque tempora quia a incidunt. Placeat quo veniam a occaecati necessitatibus ea necessitatibus. Dolores esse minima sint eum eos et. Architecto corrupti reprehenderit animi est animi soluta quia a.","hours":"Suite 985","phone_number":"874-039-7898 x661","price_range":"$$$","review_average":null,"review_count":482,"tags":["hard drive","pixel","system","card","sensor","matrix","firewall","monitor","matrix","capacitor","firewall","driver","monitor","alarm","transmitter","pixel","pixel","driver","array","array","bus","feed","hard drive","port"]},{"id":64,"name":"global","address_line_1":"0740 Windler Valley","address_line_2":null,"city":"Bradfort","state":"OH","zip":"88969-6245","longitude":"-40.7919","latitude":"16.4342","neighborhood":"Tala","website":"https://luigi.biz","description":"Nisi magnam exercitationem et nemo libero sed expedita. Nesciunt molestias ex sequi iste vel et. Adipisci quis corporis aut officiis ullam. Et qui ut consectetur quae nesciunt unde sed.","hours":"Suite 132","phone_number":"(333) 419-2140 x82261","price_range":"$$","review_average":null,"review_count":1401,"tags":["driver","array","circuit","bus","feed","bus"]},{"id":65,"name":"Circles Jewelery","address_line_1":"038 Erik Rapids","address_line_2":null,"city":"Marilyneton","state":"NY","zip":"51550-6656","longitude":"47.9634","latitude":"-69.1944","neighborhood":"Latvia empower","website":"https://raven.com","description":"Ut animi ad ut assumenda deserunt. Autem sit beatae dolor nemo placeat eius dicta quas non. Provident error minima.","hours":"Suite 057","phone_number":"691-799-3819","price_range":"","review_average":null,"review_count":672,"tags":["matrix","bandwidth","array","monitor"]},{"id":66,"name":"capacitor Azerbaijanian Manat","address_line_1":"79886 Rice Fords","address_line_2":"Apt. 771","city":"South Vernie","state":"CO","zip":"08856-3644","longitude":"-88.7814","latitude":"79.0454","neighborhood":"Svalbard & Jan Mayen Islands mobile","website":"https://alicia.net","description":"Ut dolorem vitae ratione. Sit facilis sed veritatis ratione. Repudiandae et suscipit. Occaecati velit sint. Ut culpa ullam dolores. Quia et reiciendis itaque dolores recusandae.","hours":"Suite 778","phone_number":"792-322-8811 x63728","price_range":"$$","review_average":null,"review_count":406,"tags":["protocol","transmitter","program","microchip","pixel","capacitor","interface","panel","panel","driver","capacitor","port","transmitter","card","program","matrix","microchip","panel","pixel","protocol","matrix","circuit","bus","capacitor","panel","capacitor","card","microchip","matrix","bandwidth","feed","feed","protocol","driver","feed","array","sensor","transmitter","driver","hard drive","card","interface","bus","interface","matrix","array","bus","pixel"]},{"id":67,"name":"optical Landing Applications","address_line_1":"8195 Swaniawski Burgs","address_line_2":null,"city":"East Logan","state":"SC","zip":"86170","longitude":"39.7687","latitude":"53.2235","neighborhood":"SDD backing up Personal Loan Account","website":"https://andres.net","description":"Iste earum vero voluptatem voluptatibus quis nemo iusto est dolorem. Omnis velit odio ad nostrum et. Numquam quia dolor nesciunt laborum quam corrupti. Facilis error facere beatae doloribus ut ex aliquid.","hours":"Suite 157","phone_number":"(470) 818-0063 x2150","price_range":"$$$$","review_average":null,"review_count":1885,"tags":["bus","protocol","bus","feed","feed","protocol","panel","capacitor","port"]},{"id":68,"name":"Borders","address_line_1":"24365 Ratke Avenue","address_line_2":null,"city":"Vickieshire","state":"OH","zip":"67065-4112","longitude":"96.6728","latitude":"54.2821","neighborhood":"impactful","website":"http://curtis.biz","description":"Maiores beatae perferendis voluptas odio. Nobis aliquam dolorem eos ratione sunt accusantium voluptate eveniet. Quia quo porro labore rerum assumenda. Aperiam ut aperiam non sit aliquid placeat accusantium doloribus.","hours":"Apt. 310","phone_number":"(067) 298-9357","price_range":"$","review_average":null,"review_count":291,"tags":["firewall","panel","alarm","hard drive","protocol","bus","array","hard drive","matrix","system","firewall","transmitter","application","application"]},{"id":69,"name":"bandwidth","address_line_1":"89042 Heller Estate","address_line_2":"Suite 021","city":"Eliseofurt","state":"RI","zip":"00137-6189","longitude":"15.7083","latitude":"-19.5634","neighborhood":"interactive","website":"http://janae.net","description":"Consectetur quo rerum qui animi nesciunt sed id odit impedit. Dolore rerum repellat esse. Velit fugit perspiciatis exercitationem. Dolor blanditiis qui laudantium voluptatem.","hours":"Apt. 360","phone_number":"(859) 264-3172","price_range":"$$","review_average":null,"review_count":1142,"tags":["circuit","port","feed","system","alarm","panel","hard drive","circuit","feed","monitor","port","application","card","hard drive","matrix","capacitor","driver","sensor","driver","pixel","sensor","monitor","program","bus","card","firewall","interface","bandwidth"]},{"id":70,"name":"Open-source","address_line_1":"476 Faustino Knolls","address_line_2":null,"city":"Collinsmouth","state":"NH","zip":"41176","longitude":"-100.4559","latitude":"33.5796","neighborhood":"Massachusetts","website":"http://donny.net","description":"Eum nobis aut. Deserunt a ut asperiores voluptatibus explicabo non. Atque non suscipit consequuntur. Fugiat iure harum dolorum consequatur adipisci dolores quo et. Impedit laudantium optio est magnam aliquam voluptatem saepe vero molestias.","hours":"Apt. 353","phone_number":"308.336.2601 x040","price_range":"$$","review_average":null,"review_count":663,"tags":["array","capacitor","firewall","system","sensor","pixel","microchip","hard drive","alarm","pixel","system","monitor","application","sensor","card","firewall","bandwidth","card","application","monitor","microchip","application","transmitter","feed","array","bandwidth","port","pixel","feed","panel","firewall","matrix","program","application","panel","feed","alarm","firewall","microchip","card","capacitor","pixel","panel"]},{"id":71,"name":"reboot","address_line_1":"929 Gulgowski Circle","address_line_2":null,"city":"West Lucienne","state":"AZ","zip":"71235","longitude":"-70.0529","latitude":"45.7379","neighborhood":"Handcrafted","website":"https://sonny.net","description":"Nam eligendi dicta nostrum ut quod fugit. Saepe doloribus esse. Vero quos omnis cupiditate rerum dolorum rerum.","hours":"Apt. 187","phone_number":"(709) 188-5051","price_range":"$$","review_average":null,"review_count":1173,"tags":["array","array","alarm","alarm","bus","panel","program","card","card","bandwidth","system","array","capacitor","bus","application","circuit","sensor","alarm","application","port","application","hard drive","matrix","protocol","microchip","alarm"]},{"id":72,"name":"Granite Accountability","address_line_1":"3920 Cummings Mount","address_line_2":"Apt. 702","city":"Kassulkemouth","state":"NC","zip":"60268-4890","longitude":"-4.5336","latitude":"-21.2204","neighborhood":"quantifying evolve","website":"http://landen.net","description":"Sequi consectetur unde molestiae laboriosam est. A nisi et quia voluptatem possimus. Et animi delectus nulla eum ducimus minima possimus non laboriosam. Ut perspiciatis ab nihil quas fugiat vitae molestias voluptate.","hours":"Apt. 503","phone_number":"232-073-3513","price_range":"$$","review_average":null,"review_count":903,"tags":["pixel","protocol","system","interface","bandwidth","transmitter","card","alarm","program","program","transmitter","hard drive","array","feed","sensor","driver","pixel","hard drive","card","system","application","port","array","card","firewall","pixel","driver","firewall","sensor","capacitor","circuit","monitor","transmitter","panel","bandwidth","interface","firewall","transmitter","firewall","capacitor","circuit","transmitter","bandwidth","matrix","firewall","sensor","sensor"]},{"id":73,"name":"back up Investment Account Balanced","address_line_1":"5240 Rutherford Rapid","address_line_2":null,"city":"South Reinholdburgh","state":"SC","zip":"56918","longitude":"-56.0544","latitude":"81.4595","neighborhood":"Hat Regional Russian Ruble","website":"https://glenna.net","description":"Autem voluptatibus error eaque sed ratione iusto. Quasi qui sapiente. Nobis hic dolor temporibus cupiditate eos dolorem sapiente eveniet.","hours":"Apt. 091","phone_number":"782-804-6369","price_range":"$$$$","review_average":null,"review_count":898,"tags":["pixel","monitor","bus","interface","transmitter","panel","sensor","feed","circuit","alarm","bus","port","panel","driver","protocol","panel","sensor","port","interface","bus","bus","driver","driver","array","application","feed","matrix","pixel","firewall","firewall","system","monitor","alarm","capacitor","feed","feed","bandwidth","capacitor","interface"]},{"id":74,"name":"array","address_line_1":"64207 Nader Lights","address_line_2":null,"city":"Romaguerashire","state":"KY","zip":"90630-9990","longitude":"74.5361","latitude":"88.3442","neighborhood":"Estates","website":"http://jedediah.info","description":"Sunt a ea molestiae quae qui consequatur. Quo placeat molestias et tempora consequatur ut. Vero magnam fugit odio impedit numquam sit repellendus ipsum voluptates. Provident maiores inventore sint vero quis qui provident. Quidem hic voluptatum repellendus est. Non impedit sequi tempora aut corrupti et consequuntur tenetur velit.","hours":"Suite 644","phone_number":"063-394-3694","price_range":"$$$$$","review_average":null,"review_count":66,"tags":["card","capacitor","matrix","driver","system","firewall","circuit","array","panel","system","transmitter","monitor","program","sensor","port"]},{"id":75,"name":"deliver backing up USB","address_line_1":"5569 Josiane Via","address_line_2":"Apt. 003","city":"South Yoshikotown","state":"NJ","zip":"20653-0607","longitude":"-177.2235","latitude":"-84.0673","neighborhood":"leading-edge empowering Fantastic","website":"http://amari.info","description":"Aliquam pariatur minus ut incidunt officia autem. Adipisci magnam aut repudiandae. Distinctio et quo nesciunt aut distinctio consequatur. Autem itaque esse a enim quo totam.","hours":"Apt. 626","phone_number":"(492) 722-9750 x5981","price_range":"$$$$$","review_average":null,"review_count":819,"tags":["array","bus","matrix","bus","application","alarm","program","sensor","pixel","driver","feed","circuit","firewall","sensor","protocol","program","card","circuit","port","array","card","matrix","alarm","bus","system","card"]},{"id":76,"name":"copying benchmark Credit Card Account","address_line_1":"81000 Maida Freeway","address_line_2":null,"city":"Olsonfort","state":"NJ","zip":"25929","longitude":"35.8848","latitude":"35.6175","neighborhood":"mesh Tools deposit","website":"https://johan.name","description":"Ducimus perferendis aut. Ut tempore quisquam. Est nesciunt qui id eum excepturi vitae corporis corrupti sint.","hours":"Apt. 931","phone_number":"159.198.7664 x60046","price_range":"$$","review_average":null,"review_count":1438,"tags":["microchip","interface","matrix","driver","feed","microchip","monitor","hard drive","monitor","driver","driver","bus","hard drive","protocol","microchip"]},{"id":77,"name":"innovative CFA Franc BCEAO deliverables","address_line_1":"770 Archibald Estates","address_line_2":null,"city":"Port Ellen","state":"WI","zip":"71991-2076","longitude":"-61.4851","latitude":"39.3543","neighborhood":"Credit Card Account THX Pennsylvania","website":"https://gabriel.org","description":"Neque quis enim natus dolorum et omnis minus. Eum in dolorum sed aut reprehenderit quibusdam voluptate quis possimus. Optio sint unde enim ut odit quia.","hours":"Apt. 535","phone_number":"(117) 577-4103 x417","price_range":"$","review_average":null,"review_count":390,"tags":["driver","transmitter","array","driver","application","array","program","microchip","array","program","interface","monitor","port","bus"]},{"id":78,"name":"Licensed Car","address_line_1":"616 Luigi Summit","address_line_2":"Suite 853","city":"West Abelardo","state":"MO","zip":"64410-1275","longitude":"-124.8698","latitude":"-20.3796","neighborhood":"Lodge sky blue","website":"http://kasandra.name","description":"Quam dolorem voluptate rerum optio recusandae veritatis aut recusandae. Vero dolor qui ut magnam suscipit rem rerum modi. Nostrum est laboriosam ducimus eum similique distinctio neque. Dolore ullam atque maxime veniam distinctio quidem reiciendis.","hours":"Apt. 406","phone_number":"410.677.2133 x8172","price_range":"","review_average":null,"review_count":1415,"tags":["firewall","bandwidth","hard drive","matrix","bandwidth","program","matrix","card","array","array","system","protocol","program","feed","sensor","protocol","program","panel","card","feed","application","microchip","hard drive","interface","sensor","application","application","pixel","interface","bandwidth","system","monitor","sensor","firewall","panel","application","capacitor","bus"]},{"id":79,"name":"International","address_line_1":"8386 Amber Court","address_line_2":null,"city":"Kochview","state":"WY","zip":"91366","longitude":"-111.4322","latitude":"64.8154","neighborhood":"Reactive","website":"https://adrain.info","description":"Dolor sit assumenda minus magnam quam. Suscipit soluta et voluptatibus eum. Esse aliquam eaque minus ut tenetur omnis doloremque itaque. Error provident et placeat id molestiae possimus repellendus tenetur nam. Rerum consectetur sequi aspernatur. Quis est sint nisi et dolore est eos enim voluptas.","hours":"Suite 791","phone_number":"419-552-3076","price_range":"$","review_average":null,"review_count":120,"tags":["feed","sensor","matrix","bandwidth","bandwidth","protocol","circuit","bandwidth","protocol","pixel","pixel","bandwidth","system","firewall","bus","bus","hard drive","interface","sensor","application","bandwidth","driver","port","bandwidth","capacitor","alarm","pixel","circuit","port","card","bandwidth","bandwidth","interface","interface","matrix","transmitter"]},{"id":80,"name":"demand-driven","address_line_1":"99534 Sauer Port","address_line_2":null,"city":"Harrisfurt","state":"FL","zip":"09428-3938","longitude":"-39.5743","latitude":"-66.5981","neighborhood":"user-facing","website":"https://thaddeus.biz","description":"Cupiditate ab repellendus voluptas optio harum tenetur consequuntur iusto a. Odio rerum maiores omnis itaque accusamus. Corporis explicabo sequi odio. Assumenda praesentium neque voluptatem et. Rem non laborum blanditiis dolorem voluptatem animi earum et quisquam.","hours":"Apt. 406","phone_number":"(688) 249-2105","price_range":"$$","review_average":null,"review_count":1558,"tags":["matrix","pixel","card","circuit","system","alarm","card","interface","array","bandwidth","microchip","program","program","alarm","transmitter","interface","feed"]},{"id":81,"name":"Wooden Home Loan Account Auto Loan Account","address_line_1":"83654 Will Club","address_line_2":"Apt. 890","city":"East Rodrigo","state":"AL","zip":"04638","longitude":"-129.4844","latitude":"4.5480","neighborhood":"virtual drive driver","website":"https://adrian.net","description":"Totam saepe voluptate quis laboriosam aspernatur doloribus. Nobis saepe eos. Rerum illo quisquam. Et dolore quia voluptate. Eligendi et illum eligendi optio sint quo sint nihil.","hours":"Apt. 411","phone_number":"(694) 772-2907","price_range":"$$","review_average":null,"review_count":762,"tags":["feed","microchip","protocol","array","feed","firewall","feed","monitor","circuit","protocol","alarm","circuit"]},{"id":82,"name":"panel e-markets","address_line_1":"1368 Stamm Rue","address_line_2":null,"city":"Nicolaburgh","state":"WV","zip":"96397-6013","longitude":"167.6188","latitude":"-12.6641","neighborhood":"XSS Analyst","website":"https://zion.info","description":"Voluptatibus rerum sed eveniet non ea mollitia expedita. Illum porro totam. Amet quasi accusantium est qui molestiae. Rerum sit rem qui. Vitae quo vero qui aperiam voluptatibus. Ea eius repellendus reiciendis dolores voluptatem cum mollitia.","hours":"Suite 048","phone_number":"1-721-964-2523 x4852","price_range":"$$","review_average":null,"review_count":185,"tags":["driver","application","port","card","circuit","capacitor","circuit","bandwidth","matrix"]},{"id":83,"name":"programming","address_line_1":"17094 Peggie Light","address_line_2":null,"city":"Haneton","state":"PA","zip":"02374","longitude":"-97.8454","latitude":"-59.6309","neighborhood":"1080p","website":"https://lucile.biz","description":"Consequuntur ad veniam nisi est cupiditate velit. Provident ea ad in ea ipsam provident nihil. Sit laborum est commodi. Ea maiores est eos. Alias temporibus praesentium tempora quo dolorum.","hours":"Suite 596","phone_number":"(526) 884-8109","price_range":"$$","review_average":null,"review_count":999,"tags":["card","program","monitor","microchip","application","application","port","application","capacitor","sensor","application","matrix","matrix","application","system","bus","driver","panel","microchip","firewall","alarm","alarm","microchip","monitor","program","alarm","interface","interface","matrix","driver","sensor","system","matrix","monitor","array","card","port","alarm","panel","transmitter","port","panel","protocol","matrix","transmitter","protocol"]},{"id":84,"name":"Mexico","address_line_1":"058 Margarette Lock","address_line_2":"Suite 899","city":"Port Kathrynhaven","state":"NE","zip":"26838-4034","longitude":"23.3177","latitude":"-10.8215","neighborhood":"silver","website":"http://rafael.net","description":"Quia modi blanditiis laboriosam eos voluptas corporis. Quod voluptate quia natus perspiciatis eum odio ut totam. Doloribus magni dolor eligendi quasi pariatur maiores consectetur. Optio magni necessitatibus minus et. Nobis dolores eum est. At nostrum qui ut corporis non.","hours":"Suite 180","phone_number":"228-372-5567 x5523","price_range":"$$$$$","review_average":null,"review_count":948,"tags":["alarm"]},{"id":85,"name":"quantifying","address_line_1":"02733 Morissette Land","address_line_2":null,"city":"New Stephaniechester","state":"MO","zip":"28300-3092","longitude":"-13.3737","latitude":"48.2822","neighborhood":"Digitized","website":"http://myrl.info","description":"Magni nemo rerum numquam sint dolorum minus quia omnis voluptas. Error accusamus aperiam velit alias cum maiores voluptate. Soluta et culpa eum nemo. Veritatis illo ut voluptatem voluptate impedit dolores. Vero molestias et recusandae praesentium praesentium repellat in optio. Commodi similique perferendis repellendus odio esse est doloremque culpa asperiores.","hours":"Suite 589","phone_number":"1-639-238-5709","price_range":"$","review_average":null,"review_count":614,"tags":["array","port","program","card","hard drive","system","bus","system","bus","firewall","pixel","protocol","driver","alarm","matrix","sensor","transmitter","interface","bus","sensor","card","bandwidth","driver","feed","circuit","sensor","alarm","alarm","feed","application","bandwidth","driver","feed","bandwidth"]},{"id":86,"name":"USB payment","address_line_1":"52297 Marcos Run","address_line_2":null,"city":"Gildaburgh","state":"AL","zip":"30443","longitude":"-68.7779","latitude":"-10.8953","neighborhood":"Mouse silver","website":"https://dayana.biz","description":"Facilis sed explicabo aut. Eligendi quos veritatis quam assumenda eligendi. Aliquid laborum eum. In autem iure numquam ab est vitae ea. Molestiae impedit quia expedita sit.","hours":"Suite 158","phone_number":"(514) 191-1881 x2069","price_range":"$$$$","review_average":null,"review_count":233,"tags":["protocol","monitor","driver","card","matrix","application","bus","pixel","capacitor","hard drive","panel","interface","capacitor","array","pixel","circuit","pixel","monitor","feed","bus","application","bandwidth","hard drive","hard drive","program","matrix","panel","array","system","port","program","sensor","port","pixel","program","bandwidth"]},{"id":87,"name":"Customer-focused Codes specifically reserved for testing purposes","address_line_1":"554 Lemke Stream","address_line_2":"Suite 924","city":"Websterside","state":"WV","zip":"12028","longitude":"130.0023","latitude":"64.4470","neighborhood":"Concrete backing up","website":"https://darian.net","description":"Rerum eos cum culpa ipsam voluptatem. Ipsum exercitationem omnis et perspiciatis quaerat illo. Consectetur voluptatem quibusdam ipsum error autem et. Itaque commodi quam aut ut quibusdam deleniti. Perspiciatis sint fugiat at. Earum sapiente vel a non provident animi autem.","hours":"Apt. 957","phone_number":"853.890.7535 x1163","price_range":"$$$$","review_average":null,"review_count":1119,"tags":["monitor","circuit","port","bandwidth","bandwidth","circuit"]},{"id":88,"name":"quantify","address_line_1":"3003 Rossie Brook","address_line_2":null,"city":"North Timmy","state":"NM","zip":"15636-2422","longitude":"96.2164","latitude":"-89.2779","neighborhood":"Implementation","website":"https://valentine.net","description":"Consequatur quibusdam rerum maxime impedit ipsum necessitatibus rem et. Veniam modi dolorem dignissimos. Suscipit sit eos iure nisi quia. Eaque perspiciatis sint et tempore consequuntur non culpa.","hours":"Apt. 940","phone_number":"1-606-163-8364 x4711","price_range":"$","review_average":null,"review_count":701,"tags":["bus","array","program","microchip","bandwidth","feed","interface","bus","driver","capacitor","sensor","interface","array","alarm","transmitter","system","bandwidth","bus","pixel","array","interface"]},{"id":89,"name":"emulation pixel","address_line_1":"034 Thiel Trace","address_line_2":null,"city":"Cartwrightbury","state":"ME","zip":"14824","longitude":"167.1203","latitude":"20.5896","neighborhood":"infomediaries Handcrafted Steel Table","website":"http://octavia.net","description":"Alias dolorem cumque et aliquam. Non illum est iusto quod non ut animi est soluta. Earum laboriosam hic odit placeat nesciunt officiis laboriosam ea. Autem quam maxime ea et. Ut quo eum nobis. Eveniet commodi ut molestias voluptatem vel earum.","hours":"Apt. 336","phone_number":"(938) 720-3235","price_range":"$$$","review_average":null,"review_count":1534,"tags":["transmitter","application","microchip","sensor","circuit","transmitter","driver","bus","matrix","capacitor","protocol","matrix","transmitter","transmitter","matrix","pixel","pixel","alarm","capacitor","system","driver","monitor","transmitter","interface","card","matrix","port","circuit","card","port","system","protocol","array","sensor","program","card","alarm","firewall","system"]},{"id":90,"name":"reboot Legacy","address_line_1":"90225 Lia Spurs","address_line_2":"Apt. 660","city":"West Duane","state":"KY","zip":"63615-1568","longitude":"122.4942","latitude":"9.9178","neighborhood":"copy auxiliary","website":"https://megane.name","description":"Dolorem repellat aut occaecati hic error minima corrupti quasi amet. Provident ipsa ea dolorem placeat. Sed ut nemo totam quia voluptatem. Enim molestiae voluptas sunt aperiam iusto. Consequatur nulla quia voluptas.","hours":"Suite 934","phone_number":"750-865-1991 x628","price_range":"$$$","review_average":null,"review_count":1131,"tags":["port","interface","firewall","feed","alarm","alarm","card","transmitter","bandwidth","application","circuit","circuit","microchip","array","protocol","hard drive","transmitter","bandwidth","monitor","port","matrix","panel","bus","port","matrix","driver","program","capacitor","array","panel","microchip","program","program","array","interface","sensor","alarm","transmitter"]},{"id":91,"name":"end-to-end Kids Generic Soft Car","address_line_1":"028 Altenwerth Valleys","address_line_2":null,"city":"Vellamouth","state":"IA","zip":"45582","longitude":"132.5469","latitude":"86.1380","neighborhood":"multi-byte alarm program","website":"https://marion.name","description":"Dolores esse voluptatem ipsam hic sunt est enim. Qui aperiam velit recusandae nulla ex eveniet aut earum. Libero beatae perferendis impedit quos placeat excepturi odit quos. Vel aspernatur assumenda dignissimos ullam consequatur dolorem.","hours":"Suite 234","phone_number":"062.618.1711 x913","price_range":"","review_average":null,"review_count":1036,"tags":["program","port","program","interface","hard drive","alarm","microchip","capacitor","protocol","pixel","firewall","bus","card","system","capacitor","circuit","circuit","driver","protocol","alarm","matrix","microchip","monitor","card","transmitter","microchip","port","transmitter","firewall"]},{"id":92,"name":"Pennsylvania Metal port","address_line_1":"3495 Lind Meadows","address_line_2":null,"city":"New Kaydenmouth","state":"AZ","zip":"75414","longitude":"84.2725","latitude":"-3.8872","neighborhood":"Steel Incredible application","website":"https://marco.net","description":"Iste aliquam neque veniam libero ad est aperiam sunt. Officia aut iure asperiores nisi odit. Velit quaerat itaque assumenda laboriosam aut aliquid inventore reprehenderit ducimus.","hours":"Suite 968","phone_number":"1-332-533-0347","price_range":"$$$$$","review_average":null,"review_count":1415,"tags":["matrix","pixel","bus","array","panel","bus","program","bandwidth","hard drive","panel","bus","monitor","interface","hard drive","pixel","feed","card","application","protocol","circuit","firewall","application","feed","application","program","array","bus","circuit","firewall","driver","feed","feed","port","hard drive","panel","panel","protocol","transmitter","microchip","bandwidth","protocol","pixel","capacitor","monitor","pixel","sensor","sensor","firewall"]},{"id":93,"name":"Ergonomic","address_line_1":"9891 Stokes Key","address_line_2":"Suite 477","city":"Dameonport","state":"VT","zip":"37459-2625","longitude":"-110.2292","latitude":"-29.9088","neighborhood":"invoice","website":"https://alphonso.biz","description":"Voluptas ab dolorum laborum. Est commodi dolorem. Quasi reiciendis illo nesciunt et est illo. Aut doloremque distinctio minima quod quos cupiditate qui.","hours":"Suite 731","phone_number":"027-623-8707 x025","price_range":"$$$$","review_average":null,"review_count":1990,"tags":["feed","circuit","bus","firewall"]},{"id":94,"name":"Tasty Plastic Shoes","address_line_1":"43850 Walter Expressway","address_line_2":null,"city":"East Nickolastown","state":"SD","zip":"87777-3025","longitude":"-14.5895","latitude":"-6.2601","neighborhood":"calculating","website":"http://mazie.net","description":"Non saepe labore. Maiores explicabo non est natus. Doloribus neque laboriosam sint quo.","hours":"Apt. 589","phone_number":"(829) 534-3833 x22554","price_range":"$$$$$","review_average":null,"review_count":1085,"tags":["system","protocol","pixel","sensor","program","panel","program","firewall","transmitter","pixel","capacitor","microchip"]},{"id":95,"name":"Toys","address_line_1":"20580 Schaefer Plains","address_line_2":null,"city":"Luraton","state":"FL","zip":"04286-9248","longitude":"141.4032","latitude":"-58.5850","neighborhood":"forecast","website":"http://nigel.com","description":"Qui reprehenderit provident totam quam et blanditiis quas. Dolorem laborum dolorem rerum voluptatem enim. Assumenda quae necessitatibus nisi vel eveniet. Quod nam aut officia.","hours":"Apt. 570","phone_number":"1-374-511-4440 x95864","price_range":"$$$$$","review_average":null,"review_count":1476,"tags":["bus","driver","microchip","program","transmitter","monitor","microchip","microchip","transmitter","capacitor","monitor","driver","transmitter","bus","interface","capacitor","protocol","hard drive","alarm","capacitor","matrix","alarm","monitor","application","bandwidth","monitor","bus","feed","application","transmitter","bandwidth"]},{"id":96,"name":"Borders Generic Rubber Hat","address_line_1":"8353 McCullough Dale","address_line_2":"Suite 063","city":"West Orastad","state":"RI","zip":"04162-5816","longitude":"10.3053","latitude":"47.1448","neighborhood":"Valleys FTP","website":"http://lonny.net","description":"Pariatur distinctio cumque doloribus in dolor quas dolores ad facilis. Sed voluptas commodi qui sed voluptas aperiam mollitia. Earum suscipit aliquid molestias est in. Dolor sit sint voluptatum porro ratione hic.","hours":"Suite 724","phone_number":"113.715.5252 x994","price_range":"$","review_average":null,"review_count":491,"tags":["card","matrix","circuit","monitor","hard drive","matrix","driver","port","monitor","circuit","monitor","panel","program","bandwidth","protocol","matrix","panel","system","matrix","feed","program","application","matrix","program","monitor","interface","transmitter","card","array","bandwidth","firewall","firewall","microchip","application","system","panel","port","application","panel","port","system","port","array","circuit","bandwidth","port","interface","port","capacitor","driver"]},{"id":97,"name":"asymmetric","address_line_1":"36036 Abby Village","address_line_2":null,"city":"Port Katelinport","state":"FL","zip":"10417-5101","longitude":"-121.2393","latitude":"60.8531","neighborhood":"generating","website":"https://adelia.name","description":"Et in perspiciatis laboriosam veritatis culpa. Laboriosam quod voluptas eius eos est earum et. Voluptatem debitis quia placeat exercitationem odit sequi. Voluptates facere eos. Id blanditiis expedita mollitia a quia sunt eos ut doloremque. Est et necessitatibus dolorum et cum quia deserunt ad.","hours":"Apt. 870","phone_number":"656.959.7143 x32188","price_range":"$$$$$","review_average":null,"review_count":1489,"tags":["monitor","circuit","system","driver","hard drive","panel","pixel","pixel","feed","transmitter","system","alarm","alarm","firewall","feed","circuit","card","microchip","microchip","program","matrix","driver","alarm","transmitter","pixel","circuit","monitor","panel","circuit","program","panel","capacitor","driver","sensor","feed","sensor","program","program"]},{"id":98,"name":"wireless Keyboard","address_line_1":"67286 Jenifer Gateway","address_line_2":null,"city":"North Kayla","state":"AL","zip":"28357-3314","longitude":"36.7528","latitude":"76.3400","neighborhood":"Ball deliverables","website":"https://andreane.info","description":"Totam necessitatibus quibusdam est corporis omnis accusantium aut sit. Qui et iste et sit. Ex vel tempora sed voluptatem saepe soluta. Magni provident consectetur eos saepe accusantium et nesciunt.","hours":"Apt. 227","phone_number":"845.680.5555 x682","price_range":"$","review_average":null,"review_count":1567,"tags":["bus","bandwidth","port","alarm","sensor","microchip","matrix","bandwidth","driver","monitor","port","application","firewall","card","protocol","program","program","hard drive","alarm","alarm","card","pixel","transmitter","bandwidth","capacitor","alarm","program","monitor","bandwidth","application","bandwidth","card","firewall","microchip","capacitor","port","array","driver","port","driver","bandwidth"]},{"id":99,"name":"Cambridgeshire Grocery","address_line_1":"745 Emmerich Trace","address_line_2":"Apt. 437","city":"Lake Ernestinatown","state":"NY","zip":"19341","longitude":"-120.1668","latitude":"33.3237","neighborhood":"index syndicate","website":"https://colin.info","description":"Veniam qui ipsam odio omnis quas recusandae earum. Dolores molestias quas asperiores. Sequi voluptate perspiciatis neque. Ut suscipit aut odio quis nulla aspernatur impedit neque nihil. Praesentium asperiores dolor voluptas deserunt deserunt quos doloribus sit quos. Non nostrum commodi et.","hours":"Apt. 969","phone_number":"575-855-9310 x314","price_range":"$$$$$","review_average":null,"review_count":1856,"tags":["driver","circuit","firewall","feed","pixel","pixel","driver","array","bandwidth","bandwidth","firewall","card","program","program","program","hard drive","monitor","sensor","sensor","driver","array","hard drive","bus","feed","panel","feed"]},{"id":100,"name":"Brand Kwanza neural-net","address_line_1":"2572 Little Square","address_line_2":null,"city":"Kutchberg","state":"MO","zip":"29439","longitude":"118.5731","latitude":"82.8229","neighborhood":"transmit content iterate","website":"https://lenny.biz","description":"Odit vel debitis autem aut. Incidunt odit quis recusandae sunt. Eum ut est eos eos et assumenda porro. Dolore dolore nam asperiores et eos consectetur debitis.","hours":"Apt. 129","phone_number":"(610) 863-3295 x755","price_range":"$$$$$","review_average":null,"review_count":958,"tags":["feed","pixel","card","card","card","sensor","program","transmitter","circuit","hard drive","array"]}]